{"type": "FeatureCollection", "features": [
{"type": "Feature", "geometry": {"type": "Point", "coordinates": [-117.131861, 32.920173]}, "properties": {"Name": "Lavinnia  Sweigart", "Address": "8990 BRENTFORD AVE", "zipcode": 130960, "cluster": 1}}
,{"type": "Feature", "geometry": {"type": "Point", "coordinates": [-117.133607, 32.920137]}, "properties": {"Name": "Mercedese Irmgard Thero", "Address": "8880 BRENTFORD AVE", "zipcode": 130960, "cluster": 5}}
,{"type": "Feature", "geometry": {"type": "Point", "coordinates": [-117.132555, 32.920159]}, "properties": {"Name": "Denkevitz  Rener", "Address": "8950 BRENTFORD AVE", "zipcode": 130960, "cluster": 3}}
,{"type": "Feature", "geometry": {"type": "Point", "coordinates": [-117.132507, 32.920452]}, "properties": {"Name": "Assent  Gantvoort", "Address": "8969 LIBRA DR", "zipcode": 130960, "cluster": 3}}
,{"type": "Feature", "geometry": {"type": "Point", "coordinates": [-117.132834, 32.920445]}, "properties": {"Name": "Keuna  Malmgren", "Address": "8953 LIBRA DR", "zipcode": 130960, "cluster": 3}}
,{"type": "Feature", "geometry": {"type": "Point", "coordinates": [-117.13517, 32.920105]}, "properties": {"Name": "Jimyah  Wokwicz", "Address": "8776 BRENTFORD AVE", "zipcode": 130960, "cluster": 2}}
,{"type": "Feature", "geometry": {"type": "Point", "coordinates": [-117.133653, 32.920426]}, "properties": {"Name": "Cannette  Mahalick", "Address": "8921 LIBRA DR", "zipcode": 130960, "cluster": 5}}
,{"type": "Feature", "geometry": {"type": "Point", "coordinates": [-117.134128, 32.920126]}, "properties": {"Name": "Liliya  Rallison", "Address": "8850 BRENTFORD AVE", "zipcode": 130960, "cluster": 0}}
,{"type": "Feature", "geometry": {"type": "Point", "coordinates": [-117.13267, 32.920449]}, "properties": {"Name": "Fugate  Standerwick", "Address": "8961 LIBRA DR", "zipcode": 130960, "cluster": 3}}
,{"type": "Feature", "geometry": {"type": "Point", "coordinates": [-117.133607, 32.920137]}, "properties": {"Name": "Yeicob  Domingues", "Address": "8880 BRENTFORD AVE", "zipcode": 130960, "cluster": 5}}
,{"type": "Feature", "geometry": {"type": "Point", "coordinates": [-117.135138, 32.920393]}, "properties": {"Name": "Nayya  Drouillard", "Address": "8777 LIBRA DR", "zipcode": 130960, "cluster": 2}}
,{"type": "Feature", "geometry": {"type": "Point", "coordinates": [-117.134475, 32.920407]}, "properties": {"Name": "Tammeka  Piazza", "Address": "8845 LIBRA DR", "zipcode": 130960, "cluster": 6}}
,{"type": "Feature", "geometry": {"type": "Point", "coordinates": [-117.133953, 32.920131]}, "properties": {"Name": "Quintoria  Reigle", "Address": "8860 BRENTFORD AVE", "zipcode": 130960, "cluster": 0}}
,{"type": "Feature", "geometry": {"type": "Point", "coordinates": [-117.135002, 32.920108]}, "properties": {"Name": "D\u017eemila  Denny", "Address": "8786 BRENTFORD AVE", "zipcode": 130960, "cluster": 2}}
,{"type": "Feature", "geometry": {"type": "Point", "coordinates": [-117.13267, 32.920449]}, "properties": {"Name": "Erlon  Willison", "Address": "8961 LIBRA DR", "zipcode": 130960, "cluster": 3}}
,{"type": "Feature", "geometry": {"type": "Point", "coordinates": [-117.133256, 32.920144]}, "properties": {"Name": "Vedvit  Swerdlow", "Address": "8910 BRENTFORD AVE", "zipcode": 130960, "cluster": 4}}
]}